City_ID,City,Lat,Lng,Max Temp,Humidity,Cloudiness,Wind Speed,Country,Date
0,amga,60.8953,131.9608,-0.62,84,82,1.26,RU,1715537580
1,college,64.8569,-147.8028,9.18,49,75,1.54,US,1715537580
2,bethel,41.3712,-73.414,14.0,70,100,0.45,US,1715537331
3,bereeda,11.8704,51.0579,30.41,65,47,3.83,SO,1715537581
4,port-aux-francais,-49.35,70.2167,3.16,86,96,15.08,TF,1715537581
5,grytviken,-54.2811,-36.5092,1.01,89,77,6.49,GS,1715537581
6,weno,7.4515,151.8468,28.97,89,100,3.6,FM,1715537581
7,ashburton,-37.8626,145.0794,12.99,90,96,0.89,AU,1715537582
8,bay roberts,47.5999,-53.2648,10.36,97,100,5.39,CA,1715537380
9,fale old settlement,-9.3852,-171.2468,29.14,75,98,6.24,TK,1715537582
10,stanley,54.868,-1.6985,19.77,78,99,4.12,GB,1715537582
11,ancud,-41.8697,-73.8203,8.59,62,32,2.08,CL,1715537583
12,ploneour-lanvern,47.9,-4.2833,15.18,88,100,3.09,FR,1715537583
13,cambria,35.5641,-121.0808,27.53,73,34,1.93,US,1715537583
14,ilulissat,69.2167,-51.1,7.01,57,100,7.2,GL,1715537583
15,isafjordur,66.0755,-23.124,5.02,75,75,6.17,IS,1715537584
16,zaoyang,32.1272,112.7542,18.48,56,57,3.59,CN,1715537584
17,happy valley-goose bay,53.3168,-60.3315,19.17,27,75,6.17,CA,1715537584
18,waitangi,-43.9535,-176.5597,11.01,91,89,2.24,NZ,1715537584
19,bom jardim,-7.7958,-35.5872,31.69,36,38,4.88,BR,1715537585
20,albany,42.6001,-73.9662,14.69,70,100,0.45,US,1715537480
21,tidjikja,18.5564,-11.4271,40.19,9,86,4.77,MR,1715537585
22,nuuk,64.1835,-51.7216,2.34,80,75,11.32,GL,1715537585
23,adamstown,-25.066,-130.1015,20.25,65,0,3.5,PN,1715537585
24,yellowknife,62.456,-114.3525,6.9,65,15,4.92,CA,1715537386
25,invercargill,-46.4,168.35,8.9,92,99,0.89,NZ,1715537586
26,hammerfest,70.6634,23.6821,4.25,81,75,2.06,NO,1715537586
27,udachny,66.4167,112.4,-3.64,87,100,1.95,RU,1715537586
28,kalmunai,7.4167,81.8167,27.6,82,88,2.91,LK,1715537586
29,inirida,3.8653,-67.9239,26.02,88,99,1.59,CO,1715537587
30,iqaluit,63.7506,-68.5145,-7.39,62,100,5.36,CA,1715537348
31,karratha,-20.7377,116.8463,23.58,78,13,0.76,AU,1715537588
32,lihue,21.9789,-159.3672,25.58,92,75,2.57,US,1715537588
33,puerto natales,-51.7236,-72.4875,4.25,70,20,1.54,CL,1715537588
34,hithadhoo,-0.6,73.0833,29.49,73,84,3.81,MV,1715537588
35,blackmans bay,-43.0167,147.3167,10.96,86,99,0.45,AU,1715537588
36,mokrous,51.2333,47.5167,4.31,86,100,8.81,RU,1715537589
37,bilibino,68.0546,166.4372,-2.79,88,99,0.76,RU,1715537589
38,charlotte amalie,18.3419,-64.9307,29.82,74,0,3.64,VI,1715537542
39,uturoa,-16.7333,-151.4333,27.41,77,6,6.62,PF,1715537296
40,ushuaia,-54.8,-68.3,2.52,76,21,1.92,AR,1715537474
41,faya-largeau,17.9257,19.1043,34.11,13,3,6.53,TD,1715537590
42,dudinka,69.4058,86.1778,-2.69,96,81,5.22,RU,1715537591
43,alice springs,-23.7,133.8833,5.75,81,68,1.54,AU,1715537591
44,jamestown,42.097,-79.2353,14.45,74,100,2.57,US,1715537579
45,kingston,17.997,-76.7936,32.87,74,40,6.69,JM,1715537491
46,margaret river,-33.95,115.0667,16.4,84,100,3.55,AU,1715537591
47,fort bragg,35.139,-79.006,26.62,30,20,7.72,US,1715537591
48,margate,51.3813,1.3862,19.94,76,78,0.98,GB,1715537554
49,coquimbo,-29.9533,-71.3436,15.85,63,0,4.63,CL,1715536997
50,st. john's,47.5649,-52.7093,10.15,97,100,8.23,CA,1715537313
51,nayagarh,20.1333,85.1,28.92,71,54,1.88,IN,1715537593
52,puerto ayora,-0.7393,-90.3518,27.98,75,75,4.23,EC,1715537593
53,afaahiti,-17.75,-149.2833,25.93,84,60,6.26,PF,1715537593
54,onguday,50.75,86.15,9.74,87,98,0.33,RU,1715537593
55,bakhmach,51.1808,32.7569,5.3,68,100,2.56,UA,1715537594
56,inongo,-1.95,18.2667,27.98,66,88,0.71,CD,1715537594
57,port mathurin,-19.6833,63.4167,25.41,74,57,8.97,MU,1715537594
58,wailua homesteads,22.0669,-159.378,25.24,93,75,2.57,US,1715537594
59,mizdah,31.4451,12.9801,26.08,23,100,1.95,LY,1715537595
60,sur,22.5667,59.5289,32.2,49,23,5.12,OM,1715537595
61,newman,37.3138,-121.0208,28.13,44,0,1.79,US,1715537365
62,queenstown,-31.8976,26.8753,9.53,71,0,2.68,ZA,1715537595
63,bodaybo,57.8506,114.1933,1.68,93,73,1.76,RU,1715537596
64,nar'yan-mar,67.6713,53.087,-4.94,95,100,4.02,RU,1715537596
65,khandyga,62.6667,135.6,-0.45,94,95,0.77,RU,1715537540
66,smithers,54.7804,-127.1743,12.18,50,100,1.54,CA,1715537597
67,avarua,-21.2078,-159.775,24.03,78,100,2.06,CK,1715537597
68,bredasdorp,-34.5322,20.0403,12.59,86,2,3.06,ZA,1715537598
69,samitah,16.596,42.9444,35.5,42,10,1.29,SA,1715537598
70,soata,6.3337,-72.6828,16.22,73,91,2.65,CO,1715537598
71,talnakh,69.4865,88.3972,-7.16,91,68,2.98,RU,1715537599
72,kapa'a,22.0752,-159.319,25.99,93,75,2.57,US,1715537599
73,tiksi,71.6872,128.8694,-10.33,96,100,0.83,RU,1715537599
74,kuala tungkal,-0.8167,103.4667,26.0,92,100,2.33,ID,1715537599
75,port lincoln,-34.7333,135.8667,13.17,69,48,2.38,AU,1715537600
76,twon-brass,4.3151,6.2418,27.37,85,100,4.44,NG,1715537600
77,shache,38.4167,77.2406,22.45,12,100,2.37,CN,1715537600
78,mccook,40.2019,-100.6257,18.25,84,100,2.57,US,1715537483
79,thunder bay,48.4001,-89.3168,23.95,27,20,7.2,CA,1715537482
80,manismata,-2.4667,111.0333,24.3,98,100,0.57,ID,1715537601
81,qaqortoq,60.7167,-46.0333,2.59,79,7,2.92,GL,1715537601
82,edinburgh of the seven seas,-37.0676,-12.3116,15.28,91,68,6.72,SH,1715537601
83,maunabo,18.0072,-65.8993,33.9,83,8,2.55,PR,1715537602
84,yaren,-0.5472,166.916,28.96,74,100,5.67,NR,1715537602
85,ulsteinvik,62.3432,5.8487,22.5,74,98,2.48,NO,1715537602
86,enewetak,11.3474,162.3373,27.37,82,86,8.29,MH,1715537603
87,yonggwang-up,40.0183,127.4547,8.64,59,0,3.1,KP,1715537603
88,gadzhiyevo,69.2551,33.3362,1.23,99,100,1.22,RU,1715537603
89,papatowai,-46.5619,169.4708,9.4,86,98,3.68,NZ,1715537603
90,atafu village,-8.5421,-172.5159,29.14,76,38,6.92,TK,1715537604
91,olonkinbyen,70.9221,-8.7187,0.83,100,100,4.51,SJ,1715537604
92,cabo san lucas,22.8909,-109.9124,30.61,47,20,3.09,MX,1715537308
93,bereznik,62.8551,42.7072,-3.75,96,76,1.99,RU,1715537605
94,saint-pierre,-21.3393,55.4781,24.82,73,0,7.2,RE,1715537605
95,wanning,18.8003,110.3967,25.21,90,56,1.57,CN,1715537512
96,monywa,22.1167,95.1333,33.17,43,71,1.6,MM,1715537605
97,hawaiian paradise park,19.5933,-154.9731,21.61,97,100,4.12,US,1715537606
98,serres,41.0856,23.5497,19.09,58,68,1.96,GR,1715537606
99,chonchi,-42.6128,-73.8092,8.56,72,70,1.45,CL,1715537606
100,bridgewater,44.3835,-64.5155,12.04,70,92,0.89,CA,1715537382
101,puerto baquerizo moreno,-0.9,-89.6,27.55,69,40,7.2,EC,1715537396
102,dryden,49.7833,-92.7503,14.16,41,100,7.2,CA,1715537608
103,ribeira grande,38.5167,-28.7,20.99,83,40,5.81,PT,1715537608
104,vorgashor,67.5833,63.95,-8.44,95,42,4.56,RU,1715537608
105,shingu,33.7333,135.9833,19.76,97,100,4.38,JP,1715537608
106,ust'-ilimsk,58.0006,102.6619,5.24,57,18,1.79,RU,1715537608
107,usinsk,65.9939,57.5281,-1.07,87,100,4.47,RU,1715537609
108,rio grande,-32.035,-52.0986,18.06,93,100,9.26,BR,1715537496
109,vostochnyy,55.8167,37.8667,5.06,43,92,2.68,RU,1715537609
110,tazovsky,67.4667,78.7,-0.76,89,100,3.0,RU,1715537609
111,grande prairie,55.1667,-118.8027,18.1,32,40,7.2,CA,1715537609
112,elliot lake,46.3834,-82.6331,6.91,97,99,2.31,CA,1715537381
113,punta arenas,-53.15,-70.9167,6.06,45,0,5.66,CL,1715537460
114,paita,-5.0892,-81.1144,23.25,69,81,5.74,PE,1715537610
115,lohr am main,49.9936,9.5783,21.79,73,40,3.4,DE,1715537610
116,inhambane,-23.865,35.3833,23.99,94,20,1.54,MZ,1715537611
117,northam,51.0333,-4.2167,14.78,85,24,4.73,GB,1715537611
118,bam,29.106,58.357,28.89,11,0,2.49,IR,1715537611
119,nova vicosa,-17.8919,-39.3719,28.64,64,2,5.25,BR,1715537611
120,shenjiamen,29.9576,122.298,15.56,80,100,3.72,CN,1715537612
121,mount pearl,47.5166,-52.7813,9.69,97,100,6.69,CA,1715537576
122,petropavlovka,50.6114,105.3196,12.23,55,95,3.69,RU,1715537539
123,pangody,65.85,74.4859,0.01,99,100,4.92,RU,1715537612
124,la ronge,55.1001,-105.2842,5.12,60,100,3.6,CA,1715537613
125,korsakov,46.6328,142.7813,8.24,99,100,3.45,RU,1715537613
126,port elizabeth,-33.918,25.5701,16.84,92,40,2.57,ZA,1715537613
127,hermanus,-34.4187,19.2345,14.33,76,1,5.54,ZA,1715537613
128,bonthe,7.5264,-12.505,29.73,75,100,3.87,SL,1715537613
129,howard springs,-12.497,131.047,24.95,83,96,2.32,AU,1715537613
130,elizabethtown,37.694,-85.8591,25.07,40,0,3.6,US,1715537614
131,juneau,58.3019,-134.4197,8.01,91,100,6.69,US,1715537614
132,longyearbyen,78.2186,15.6401,0.91,75,75,3.6,SJ,1715537615
133,lompoc,34.6391,-120.4579,22.61,93,100,4.12,US,1715537615
134,thompson,55.7435,-97.8558,6.32,55,98,5.88,CA,1715537615
135,constantia,44.1833,28.65,12.38,60,100,5.34,RO,1715537437
136,daru,-9.0763,143.2092,26.25,84,50,5.89,PG,1715537615
137,port macquarie,-31.4333,152.9167,12.72,90,6,1.83,AU,1715537616
138,burnie,-41.0667,145.9167,12.47,86,100,4.47,AU,1715537616
139,weihai,37.5017,122.1136,11.75,52,0,2.84,CN,1715537378
140,san patricio,28.017,-97.5169,32.87,52,62,8.31,US,1715537616
141,petropavlovsk-kamchatsky,53.0452,158.6483,3.58,66,75,4.0,RU,1715537616
142,hami,42.8,93.45,28.73,14,0,8.05,CN,1715537617
143,anadyr,64.75,177.4833,-0.72,80,100,6.0,RU,1715537617
144,capo d'orlando,38.1435,14.7305,20.23,76,5,2.79,IT,1715537617
145,sawai madhopur,25.9833,76.3667,36.77,18,79,3.29,IN,1715537617
146,carnarvon,-24.8667,113.6333,22.9,82,13,2.41,AU,1715537618
147,elbasan,41.1125,20.0822,18.4,80,26,0.67,AL,1715537618
148,westport,41.1415,-73.3579,14.04,63,20,4.63,US,1715537484
149,kodiak,57.79,-152.4072,4.73,81,75,0.0,US,1715537618
150,sisimiut,66.9395,-53.6735,3.68,75,98,12.15,GL,1715537431
151,iskateley,67.6803,53.1512,-4.99,95,100,4.02,RU,1715537619
152,acapulco de juarez,16.8634,-99.8901,29.9,58,100,1.54,MX,1715537619
153,haiku-pauwela,20.9219,-156.3051,25.58,76,20,1.79,US,1715537619
154,keflavik,64.0049,-22.5624,10.95,81,75,5.66,IS,1715537620
155,chibougamau,49.9168,-74.3659,15.79,36,100,1.54,CA,1715537620
156,yuzhno-kurilsk,44.0306,145.8556,9.1,97,100,6.39,RU,1715537621
157,new norfolk,-42.7826,147.0587,11.62,96,95,1.21,AU,1715537621
158,pudozh,61.8099,36.5345,2.19,67,84,2.24,RU,1715537621
159,puerto wilches,7.3483,-73.896,27.31,81,99,1.0,CO,1715537621
160,kayes,14.0,-11.0,43.67,6,5,5.61,ML,1715537622
161,katabu,-4.9333,122.5167,23.47,94,53,0.86,ID,1715537622
162,west island,-12.1568,96.8225,27.99,83,40,4.63,CC,1715537622
163,moncks corner,33.196,-80.0131,27.7,41,0,2.06,US,1715537497
164,suva,-18.1416,178.4415,17.71,100,20,2.06,FJ,1715537622
165,miranda de ebro,42.6865,-2.947,16.1,68,98,4.41,ES,1715537623
166,howrah,22.5892,88.3103,29.0,79,40,3.6,IN,1715537623
167,lazaro cardenas,17.9583,-102.2,29.81,45,22,4.16,MX,1715537361
168,kone,-21.0595,164.8658,21.53,80,99,1.8,NC,1715537623
169,tanaina,61.6269,-149.4281,7.89,74,100,1.54,US,1715537623
170,bozoum,6.3193,16.3799,27.19,63,98,4.4,CF,1715537624
171,villamontes,-21.25,-63.5,12.8,80,100,1.44,BO,1715537624
172,gorontalo,0.5412,123.0595,24.21,95,87,1.11,ID,1715537624
173,sitka,57.0531,-135.33,7.94,87,75,2.57,US,1715537625
174,ceeldheer,3.8488,47.1806,28.59,76,83,7.34,SO,1715537625
175,teodoro sampaio,-22.5325,-52.1675,34.7,20,23,4.49,BR,1715537625
176,rafaela,-31.2503,-61.4867,17.21,42,100,3.58,AR,1715537411
177,ta`u,-14.2336,-169.5144,28.22,77,68,6.48,AS,1715537626
178,utrik,11.2278,169.8474,27.26,76,98,8.49,MH,1715537626
179,talara,-4.5772,-81.2719,30.42,51,0,7.72,PE,1715537438
180,mbandjok,4.45,11.9,23.48,95,89,1.78,CM,1715537626
181,tralee,52.2704,-9.7026,13.48,72,90,1.84,IE,1715537627
182,san pedro,14.35,121.0167,30.57,79,75,2.68,PH,1715537627
183,mil'kovo,55.6078,37.7956,5.19,61,94,3.34,RU,1715537628
184,colchani,-20.3,-66.9333,14.5,24,30,7.76,BO,1715537628
185,oriximina,-1.7656,-55.8661,26.28,83,99,2.15,BR,1715537628
186,coshocton,40.272,-81.8596,20.82,50,2,1.34,US,1715537628
187,hechuan,29.9947,106.2572,17.27,87,65,1.61,CN,1715537629
188,mariental,-24.6333,17.9667,24.98,25,67,1.55,NA,1715537630
189,alaghsas,17.0187,8.0168,37.96,12,100,3.61,NE,1715537504
190,poronaysk,49.2167,143.1167,4.48,97,100,1.27,RU,1715537630
191,san rafael del sur,11.8485,-86.4384,36.54,42,97,4.79,NI,1715537476
192,nikolayevsk-on-amure,53.1406,140.73,1.23,97,100,1.79,RU,1715537631
193,hanzhong,33.0728,107.0303,17.83,75,33,0.8,CN,1715537508
194,kargil,34.5667,76.1,-1.08,69,42,3.71,IN,1715537631
195,aasiaat,68.7098,-52.8699,2.15,82,100,4.77,GL,1715537632
196,las khorey,11.1595,48.1967,30.87,71,48,1.97,SO,1715537632
197,acajutla,13.5928,-89.8275,31.54,63,100,5.44,SV,1715537632
198,turrialba,9.9047,-83.6835,28.54,86,97,2.44,CR,1715537632
199,metlili chaamba,32.2667,3.6333,31.52,15,0,5.66,DZ,1715537632
200,ust-nera,64.5667,143.2,-5.05,78,83,0.67,RU,1715537633
201,shimonoseki,33.95,130.95,18.0,88,100,5.14,JP,1715537633
202,iskushuban,10.2837,50.23,29.24,60,27,5.05,SO,1715537633
203,sabratah,32.7933,12.4885,24.97,42,78,5.52,LY,1715537360
204,majene,-3.5403,118.9707,25.15,91,35,3.82,ID,1715537633
205,touros,-5.1989,-35.4608,29.57,68,37,6.19,BR,1715537423
206,lebu,-37.6167,-73.65,11.52,67,0,4.23,CL,1715537634
207,kannod,22.6667,76.7333,32.45,34,92,5.14,IN,1715537635
208,taoudenni,22.6783,-3.9836,40.42,6,1,1.52,ML,1715537635
209,kapuskasing,49.4169,-82.4331,10.05,81,100,6.17,CA,1715537635
210,kasane,-17.8167,25.15,21.41,30,1,2.87,BW,1715537635
211,oppdal,62.5943,9.6912,16.19,59,100,1.29,NO,1715537636
212,mount isa,-20.7333,139.5,16.87,48,0,4.63,AU,1715537512
213,borgarnes,64.5383,-21.9206,11.03,87,100,3.7,IS,1715537636
214,georgetown,5.4112,100.3354,26.96,94,40,2.06,MY,1715537401
215,namibe,-15.1961,12.1522,21.79,85,7,2.43,AO,1715537404
216,nemuro,43.3236,145.575,8.78,99,100,11.26,JP,1715537637
217,altai,46.3722,96.2583,14.77,17,49,2.74,MN,1715537637
218,fredrikstad,59.2181,10.9298,17.73,64,39,4.63,NO,1715537637
219,saint-joseph,-21.3667,55.6167,24.21,78,51,5.87,RE,1715537637
220,ghat,24.9647,10.1728,30.91,14,16,5.6,LY,1715537637
221,glace bay,46.1969,-59.957,7.66,96,100,10.29,CA,1715537377
222,kanuru,16.2858,81.2546,29.42,83,0,4.23,IN,1715537638
223,priyutnoye,46.1011,43.5072,12.07,45,93,4.01,RU,1715537638
224,hotan,37.0997,79.9269,23.61,10,68,3.33,CN,1715537638
225,quellon,-43.1167,-73.6167,6.83,72,87,1.58,CL,1715537536
226,cockburn town,21.4612,-71.1419,26.96,75,0,1.15,TC,1715537374
227,belokany,41.7258,46.4083,18.05,86,100,2.73,AZ,1715537639
228,i-n-salah,27.1935,2.4607,33.77,8,2,5.53,DZ,1715537640
229,puerto carreno,6.189,-67.4859,32.99,62,20,3.09,CO,1715537640
230,fort-shevchenko,44.5086,50.263,16.46,84,77,4.27,KZ,1715537640
231,tsiombe,-25.3,45.4833,20.9,84,0,1.49,MG,1715537640
232,sirte,31.2089,16.5887,20.49,68,70,4.8,LY,1715537641
233,igarka,67.4667,86.5833,-0.55,99,81,5.81,RU,1715537641
234,dongcun,36.7767,121.1597,13.73,54,0,1.46,CN,1715537641
235,port alfred,-33.5906,26.891,15.1,93,20,0.85,ZA,1715537641
236,rongelap,11.1635,166.8941,27.25,82,89,8.97,MH,1715537642
237,vilyuchinsk,52.9306,158.4028,4.4,86,100,1.97,RU,1715537540
238,jayapura,-2.5333,140.7,25.66,92,100,1.65,ID,1715537642
239,kongsvinger,60.1905,11.9977,19.69,58,99,2.98,NO,1715537349
240,iquique,-20.2208,-70.1431,18.74,74,1,2.07,CL,1715537503
241,cabedelo,-6.9811,-34.8339,30.37,70,24,4.79,BR,1715537603
242,carnforth,54.1167,-2.7667,19.78,80,100,2.24,GB,1715537354
243,badger,64.8,-147.5333,10.21,52,75,1.54,US,1715537643
244,am timan,11.0297,20.2827,37.04,9,100,2.66,TD,1715537643
245,tual,-5.6667,132.75,27.92,84,100,10.68,ID,1715537643
246,barra de santo antonio,-9.4047,-35.5072,30.6,71,14,2.76,BR,1715537644
247,nelson bay,-32.7167,152.15,15.61,94,36,0.45,AU,1715537645
248,chesma,53.8111,60.6533,9.53,92,100,0.21,RU,1715537645
249,alofi,-19.0595,-169.9187,24.94,69,75,7.2,NU,1715537645
250,hamilton,39.1834,-84.5333,24.23,40,0,3.6,US,1715537407
251,villa dolores,-31.9459,-65.1896,14.77,46,98,0.71,AR,1715537531
252,ravar,31.2656,56.8055,26.2,16,3,0.42,IR,1715537646
253,choibalsan,48.0667,114.5,15.28,31,100,3.82,MN,1715537646
254,whistler,50.1164,-122.9695,19.57,40,40,2.57,CA,1715537647
255,naliya,23.2667,68.8333,28.05,75,2,4.11,IN,1715537647
256,ortona,42.3496,14.4039,20.4,72,50,0.75,IT,1715537647
257,vorkuta,67.5,64.0,-8.27,95,45,3.58,RU,1715537648
258,malango,-2.9627,119.9001,19.13,99,91,1.07,ID,1715537648
259,solikamsk,59.6196,56.7729,-1.65,96,62,2.42,RU,1715537648
260,whitehorse,60.7161,-135.0538,7.79,48,75,8.23,CA,1715537649
261,kingaroy,-26.5333,151.8333,9.91,79,0,1.18,AU,1715537649
262,nyurba,63.2842,118.3319,0.26,98,100,3.88,RU,1715537649
263,castillos,-34.1667,-53.8333,13.55,96,99,1.59,UY,1715537649
264,mahebourg,-20.4081,57.7,25.16,73,40,3.6,MU,1715537650
265,lata,40.1629,-8.3327,18.84,61,85,3.35,PT,1715537650
266,voi,-3.3945,38.563,22.81,78,80,3.08,KE,1715537650
267,choma,-16.8065,26.9531,18.57,53,32,2.53,ZM,1715537650
268,kasaragod,12.5,75.0,27.99,82,42,2.22,IN,1715537589
269,lospalos,-8.5186,127.0025,21.24,94,50,2.68,TL,1715537651
270,parabel',58.6978,81.4825,10.51,51,43,4.02,RU,1715537651
271,ust-tsilma,65.441,52.1498,-1.33,85,100,3.13,RU,1715537651
272,urengoy,65.9667,78.3667,0.14,100,100,3.29,RU,1715537651
273,nanning,22.8167,108.3167,25.25,84,85,1.33,CN,1715537652
274,xichang,27.8964,102.2634,12.93,84,94,1.38,CN,1715537652
275,beira,-19.8436,34.8389,26.05,73,20,5.14,MZ,1715537653
276,klyuchi,52.2667,79.1667,13.77,42,3,2.92,RU,1715537653
277,novodvinsk,64.4165,40.8122,-0.12,72,100,2.04,RU,1715537653
278,kuraymah,18.55,31.85,36.69,9,3,5.87,SD,1715537653
279,tashtagol,52.7657,87.8894,9.73,80,28,0.45,RU,1715537654
280,dowlatabad,32.7998,51.6955,21.82,26,0,4.12,IR,1715537654
281,harper,4.375,-7.7169,28.19,81,100,3.51,LR,1715537654
282,summerside,46.3959,-63.7876,10.38,76,75,5.66,CA,1715537459
283,saipan,15.1355,145.701,28.39,74,20,4.12,MP,1715537655
284,codrington,-38.2667,141.9667,9.97,97,36,3.8,AU,1715537655
285,aykhal,66.0,111.5,-5.37,97,100,3.29,RU,1715537655
286,pyetrykaw,52.1289,28.4921,7.29,73,100,2.78,BY,1715537406
287,bikenibeu village,1.3673,173.1241,27.98,78,40,2.06,KI,1715537655
288,errachidia,31.9275,-4.4285,30.03,12,40,8.23,MA,1715537472
289,waddan,29.1614,16.139,26.55,21,58,4.05,LY,1715537656
290,krasnokuts'k,50.066,35.1628,4.66,74,47,3.35,UA,1715537656
291,quibdo,5.6947,-76.6611,29.19,84,75,3.6,CO,1715537656
292,pathein,16.7833,94.7333,28.33,74,5,2.81,MM,1715537657
293,markovo,57.3206,107.0881,3.27,66,2,1.57,RU,1715537657
294,peniche,39.3558,-9.3811,19.05,78,88,6.57,PT,1715537657
295,hillsboro,45.5229,-122.9898,23.12,50,0,1.34,US,1715537657
296,dakhla,23.6848,-15.958,21.01,73,0,11.32,EH,1715537658
297,axim,4.8699,-2.2405,26.37,89,96,2.2,GH,1715537497
298,zheleznogorsk,52.331,35.3711,3.78,79,100,2.58,RU,1715537658
299,camabatela,-8.1881,15.375,23.82,47,69,0.55,AO,1715537658
300,ugoofaaru,5.6667,73.0,30.31,72,71,3.81,MV,1715537659
301,severo-yeniseyskiy,60.3725,93.0408,1.43,93,34,1.34,RU,1715537659
302,huarmey,-10.0681,-78.1522,20.94,77,95,3.77,PE,1715537659
303,vanimo,-2.6741,141.3028,26.28,90,100,2.0,PG,1715537659
304,teluk nibung,3.001,99.8164,25.97,93,99,2.17,ID,1715537660
305,chegdomyn,51.1167,133.0167,3.97,94,100,1.56,RU,1715537660
306,tarfaya,27.9358,-12.9218,19.42,81,17,9.6,MA,1715537660
307,general conesa,-40.1,-64.4333,12.49,42,31,4.56,AR,1715537537
308,de aar,-30.6497,24.0123,16.65,26,0,2.62,ZA,1715537660
309,'ain el hadjar,34.7585,0.1453,19.63,52,95,1.07,DZ,1715537661
310,kuqa,41.7278,82.9364,26.83,6,92,3.41,CN,1715537661
311,paracuru,-3.41,-39.0306,29.5,87,41,3.77,BR,1715537529
312,souppes-sur-loing,48.183,2.7352,19.69,89,70,4.66,FR,1715537662
313,hilo,19.7297,-155.09,21.72,98,100,4.12,US,1715537382
314,laojunmiao,39.8333,97.7333,16.47,14,2,4.19,CN,1715537662
315,taro,-8.3862,115.28,23.0,100,86,0.06,ID,1715537662
316,plastun,44.7561,136.2939,4.51,90,11,2.35,RU,1715537662
317,wagga wagga,-35.1167,147.3667,9.36,78,0,0.21,AU,1715537663
318,okhotsk,59.3833,143.3,-0.32,98,100,2.93,RU,1715537663
319,tindouf,27.6711,-8.1474,37.25,9,20,7.2,DZ,1715537663
320,qom,34.6401,50.8764,29.7,15,99,2.4,IR,1715537518
321,azul,-36.777,-59.8585,11.94,50,32,4.55,AR,1715537664
322,qa'en,33.7265,59.1844,21.82,25,3,1.11,IR,1715537664
323,recani,31.2846,-4.2688,33.34,10,58,7.86,MA,1715537665
324,kavieng,-2.5744,150.7967,27.95,80,85,1.82,PG,1715537665
325,novoishimskiy,53.1981,66.7694,16.52,49,99,4.48,KZ,1715537665
326,jiuquan,39.7432,98.5174,16.86,15,0,1.91,CN,1715537665
327,laguna,38.421,-121.4238,28.38,55,0,3.09,US,1715537666
328,kailua-kona,19.6406,-155.9956,24.43,84,75,7.2,US,1715537666
329,polyarnyy,69.1989,33.4478,1.19,98,100,1.08,RU,1715537666
330,novyy urengoy,66.0833,76.6333,0.09,99,96,4.58,RU,1715537666
331,port saint john's,-31.6229,29.5448,18.26,72,13,1.36,ZA,1715537666
332,pisco,-13.7,-76.2167,20.03,77,75,4.63,PE,1715537667
333,mbandaka,0.0487,18.2603,24.03,91,93,0.76,CD,1715537667
334,constitucion,-35.3333,-72.4167,13.59,56,1,3.43,CL,1715537667
335,saint john,45.2727,-66.0677,10.0,61,83,2.45,CA,1715537474
336,acarau,-2.8856,-40.12,28.96,76,59,4.99,BR,1715537668
337,galliano,29.4422,-90.2992,28.33,61,100,3.6,US,1715537668
338,mangrol,21.1167,70.1167,28.18,78,36,4.85,IN,1715537668
339,leua,48.2156,18.6071,14.69,76,4,2.79,SK,1715537669
340,tracy,37.7397,-121.4252,28.44,45,0,0.45,US,1715537669
341,mirny,62.5353,113.9611,1.24,99,100,1.79,RU,1715537669
342,lethem,3.3803,-59.7968,26.36,81,100,1.91,GY,1715537670
343,bento goncalves,-29.1714,-51.5192,20.66,95,100,1.34,BR,1715537670
344,dzuunharaa,48.8523,106.4579,11.32,76,92,7.05,MN,1715537670
345,urgup,38.6304,34.9116,11.14,87,72,2.51,TR,1715537670
346,saint croix,17.7397,-64.7388,30.53,70,2,1.79,VI,1715537670
347,palikir - national government center,6.9248,158.1611,24.41,100,100,0.0,FM,1715537671
348,turpan,42.9333,89.1667,31.31,21,99,1.66,CN,1715537671
349,mantua,45.1667,10.7833,24.34,77,81,3.57,IT,1715537511
350,saint-philippe,-21.3585,55.7679,24.77,80,72,5.72,RE,1715537671
351,nadi,-17.8,177.4167,20.0,77,40,2.57,FJ,1715537381
352,moose jaw,50.4001,-105.5344,16.36,33,18,2.5,CA,1715537475
353,kish,26.5578,54.0194,28.15,65,14,3.09,IR,1715537672
354,kenai,60.5544,-151.2583,6.75,86,75,2.57,US,1715537672
355,sao jose da coroa grande,-8.8978,-35.1478,28.5,70,52,3.02,BR,1715537672
356,greymouth,-42.4667,171.2,6.89,81,100,3.19,NZ,1715537672
357,antofagasta,-23.65,-70.4,17.41,78,88,5.41,CL,1715537448
358,nev'yansk,57.4953,60.2112,2.4,69,42,4.02,RU,1715537673
359,priozersk,61.0393,30.1291,9.97,69,86,1.99,RU,1715537673
360,rongai,-0.1733,35.8638,16.92,77,100,0.48,KE,1715537673
361,nichinan,31.6,131.3667,19.82,97,100,1.54,JP,1715537673
362,port moresby,-9.4431,147.1797,24.68,83,20,2.57,PG,1715537636
363,emerald,-23.5333,148.1667,16.86,71,100,4.76,AU,1715537674
364,sant lluis,39.8526,4.2594,20.22,73,0,3.6,ES,1715537674
365,mhamid,29.82,-5.72,36.01,9,71,7.05,MA,1715537675
366,flin flon,54.7682,-101.865,6.91,61,100,3.09,CA,1715537675
367,laoang,12.5,125.0167,25.02,95,67,1.44,PH,1715537675
368,mournies,35.4764,24.0092,17.68,59,0,3.09,GR,1715537675
369,apahida,46.8167,23.75,11.19,82,75,5.81,RO,1715537676
370,whakatane,-37.9585,176.9854,9.87,94,17,2.15,NZ,1715537676
371,sarangani,5.4033,125.4636,28.72,76,56,7.58,PH,1715537676
372,soligalich,59.0778,42.2864,2.05,79,73,2.12,RU,1715537676
373,tumut,-35.3,148.2167,8.64,81,0,1.68,AU,1715537420
374,sao joao da barra,-21.6403,-41.0511,35.05,76,3,4.38,BR,1715537677
375,badou,7.5833,0.6,26.66,83,100,1.39,TG,1715537677
376,ust'-barguzin,53.45,108.9833,4.72,96,95,0.67,RU,1715537677
377,ad dilam,23.9915,47.1627,35.23,13,31,3.89,SA,1715537421
378,salalah,17.0151,54.0924,30.05,74,40,3.09,OM,1715537677
379,mount gambier,-37.8333,140.7667,9.58,99,57,2.25,AU,1715537497
380,as safirah,36.077,37.3725,16.7,75,5,8.88,SY,1715537678
381,vikulovo,56.8167,70.6107,14.06,67,98,8.41,RU,1715537678
382,arraial do cabo,-22.9661,-42.0278,33.98,55,20,4.12,BR,1715537679
383,papao,-17.75,-149.55,26.82,85,50,7.37,PF,1715537679
384,padangsidempuan,1.3667,99.2667,22.93,99,100,1.09,ID,1715537679
385,cepu,-7.1475,111.5906,23.95,89,100,1.79,ID,1715537679
386,guerrero negro,27.9769,-114.0611,19.48,62,78,6.41,MX,1715537680
387,parkville,39.3773,-76.5397,19.4,80,75,2.24,US,1715537680
388,kalevala,65.2,31.1667,0.61,96,100,1.34,RU,1715537680
389,valparaiso,-33.0393,-71.6273,19.52,46,20,2.06,CL,1715537488
390,pacific grove,36.6177,-121.9166,20.36,85,40,2.57,US,1715537680
391,balkanabat,39.5108,54.3671,29.57,28,66,1.77,TM,1715537681
392,kapoeta,4.7717,33.5903,30.55,37,78,6.21,SS,1715537681
393,al jawf,29.5,38.75,28.08,24,2,4.18,SA,1715537681
394,remire-montjoly,4.9167,-52.2667,31.02,66,20,7.2,GF,1715537682
395,freetown,8.484,-13.2299,29.03,77,100,3.41,SL,1715537682
396,watertown,42.3709,-71.1828,16.77,51,75,2.24,US,1715537625
397,zhalantun,48.0,122.7167,8.43,39,81,2.46,CN,1715537682
398,sola,-13.8833,167.55,26.73,77,100,11.5,VU,1715537683
399,madinat ash shamal,26.1293,51.2009,29.62,46,41,4.73,QA,1715537683
400,cururupu,-1.8283,-44.8683,29.12,77,92,1.88,BR,1715537683
401,loikaw,19.6742,97.2094,23.85,58,45,1.68,MM,1715537683
402,naze,28.3667,129.4833,21.51,96,100,6.55,JP,1715537616
403,ilovlya,49.3033,43.9796,7.17,65,44,4.06,RU,1715537684
404,rantauprapat,2.1,99.8333,24.58,94,97,1.03,ID,1715537684
405,cambridge,43.3601,-80.3127,17.83,57,75,4.63,CA,1715537522
406,sievi,63.9,24.5,6.44,92,84,1.59,FI,1715537685
407,najran,17.4924,44.1277,30.36,19,12,4.31,SA,1715537685
408,marsh harbour,26.5412,-77.0636,25.63,72,85,4.61,BS,1715537685
409,viedma,-40.8135,-62.9967,12.86,42,27,5.18,AR,1715537621
410,siwa oasis,29.2041,25.5195,25.68,29,0,2.23,EG,1715537686
411,mahina,-17.5065,-149.489,26.87,69,75,1.54,PF,1715537419
412,ola,59.5833,151.2833,0.63,89,99,1.79,RU,1715537686
413,tangalle,6.024,80.7911,26.09,88,100,1.24,LK,1715537481
414,vanino,49.0869,140.2543,6.63,98,100,0.86,RU,1715537686
415,yeniseysk,58.4497,92.1703,6.08,74,61,1.79,RU,1715537687
416,mitu,1.1983,-70.1733,32.47,53,63,1.98,CO,1715537687
417,banda aceh,5.5577,95.3222,26.6,87,100,3.82,ID,1715537687
418,mount pleasant,32.7941,-79.8626,27.99,45,0,2.57,US,1715537497
419,santa elena de uairen,4.6167,-61.1333,25.96,59,97,4.05,VE,1715537687
420,natchitoches,31.7668,-93.1335,18.47,100,100,0.0,US,1715537542
421,nantucket,41.2835,-70.0995,13.38,62,40,6.69,US,1715537545
422,moussoro,13.6408,16.4901,38.52,9,42,4.81,TD,1715537688
423,urangan,-25.3,152.9,19.55,85,0,3.13,AU,1715537689
424,yuzhne,46.6221,31.1013,11.22,57,41,6.48,UA,1715537689
425,pivijay,10.4617,-74.6162,34.64,52,100,3.5,CO,1715537689
426,saint-francois,46.4154,3.9054,15.92,94,85,2.06,FR,1715537689
427,butterworth,5.3991,100.3638,28.03,85,40,2.06,MY,1715537690
428,colonia,50.9333,6.95,24.36,41,0,3.09,DE,1715537403
429,forster,-32.1667,152.5167,11.83,100,17,3.66,AU,1715537690
430,puerto deseado,-47.7503,-65.8938,6.97,65,100,7.48,AR,1715537479
431,shakiso,5.75,38.9167,16.3,96,68,0.85,ET,1715537690
432,kiffa,16.6166,-11.4045,43.96,5,13,0.62,MR,1715537691
433,ostrov,57.3439,28.3537,10.85,63,30,1.73,RU,1715537691
434,mansa,29.9833,75.3833,29.59,35,37,4.65,IN,1715537691
435,pindushi,62.9152,34.58,0.08,90,84,1.02,RU,1715537691
436,wau,7.7029,27.9953,29.78,51,65,1.28,SS,1715537419
437,sharkan,57.2989,53.8712,0.74,84,30,3.08,RU,1715537692
438,oral,51.2333,51.3667,9.99,100,100,4.0,KZ,1715537692
439,dazhou,31.2159,107.5009,17.76,94,100,1.07,CN,1715537692
440,callao,-12.0667,-77.15,19.16,82,75,5.14,PE,1715537442
441,anupgarh,29.1911,73.2086,34.06,14,0,6.76,IN,1715537692
442,hasaki,35.7333,140.8333,20.22,85,100,10.61,JP,1715537693
443,flying fish cove,-10.4217,105.6791,26.82,89,75,4.12,CX,1715537693
444,macau,22.2006,113.5461,25.89,94,20,2.57,MO,1715537448
445,raholt,60.2667,11.1833,19.36,54,0,5.66,NO,1715537694
446,richards bay,-28.783,32.0377,20.02,91,100,2.14,ZA,1715537694
447,esperanza,19.5847,-70.9849,34.05,51,50,1.79,DO,1715537694
448,luganville,-15.5333,167.1667,24.84,77,97,4.8,VU,1715537694
449,calingasta,-31.3308,-69.4078,10.75,33,7,5.27,AR,1715537426
450,reggane,26.7158,0.1714,35.87,8,1,3.99,DZ,1715537695
451,sinabang,2.4803,96.3801,26.3,87,100,1.03,ID,1715537695
452,alta,69.9689,23.2717,5.59,93,75,1.54,NO,1715537424
453,luderitz,-26.6481,15.1594,14.21,80,0,5.59,NA,1715537696
454,dalbandin,28.8947,64.4101,28.78,10,0,2.81,PK,1715537696
455,tucupita,9.0622,-62.051,37.88,26,77,3.9,VE,1715537646
456,kerikeri,-35.2268,173.9474,10.51,92,0,1.91,NZ,1715537696
457,kolonia,50.9333,6.95,24.36,41,0,3.09,DE,1715537624
458,ghanzi,-21.5667,21.7833,20.6,17,0,3.51,BW,1715537697
459,cole harbour,44.6724,-63.4751,12.74,67,100,5.14,CA,1715537697
460,mejit,10.2753,170.8646,27.55,78,89,8.18,MH,1715537697
461,novi pazar,43.1367,20.5122,12.6,87,95,1.85,RS,1715537697
462,la'ie,21.6477,-157.9253,25.58,70,27,2.29,US,1715537698
463,tutong,4.8,114.65,28.05,87,100,0.53,BN,1715537698
464,dunedin,-45.8742,170.5036,9.89,90,100,2.68,NZ,1715537698
465,marsa alam,25.0757,34.8918,26.17,49,0,4.22,EG,1715537699
466,belmonte,-15.8631,-38.8828,27.93,64,8,2.82,BR,1715537699
467,menaka,15.9182,2.4022,33.88,30,99,9.46,ML,1715537699
468,fort st. john,56.2499,-120.8529,16.94,34,75,3.6,CA,1715537699
469,tura,25.5198,90.2201,21.82,89,9,1.19,IN,1715537700
470,kill devil hills,36.0307,-75.676,24.0,67,40,6.69,US,1715537700
471,bel ombre,-4.6167,55.4167,29.91,74,20,3.6,SC,1715537700
472,paramonga,-10.6667,-77.8333,20.46,77,92,3.3,PE,1715537700
473,marquette,46.5333,-87.6335,26.25,33,74,4.02,US,1715537700
474,usogorsk,63.4106,48.6872,-1.3,95,100,3.61,RU,1715537701
475,visby,57.6409,18.296,15.12,44,0,3.6,SE,1715537701
476,porirua,-41.1333,174.85,10.68,92,97,0.72,NZ,1715537701
477,morris,40.8334,-74.5329,11.16,88,100,4.12,US,1715537701
478,fenghua,29.6563,121.4064,13.94,94,0,1.0,CN,1715537702
479,yigo village,13.5361,144.8886,26.16,88,40,4.12,GU,1715537702
480,shiprock,36.7855,-108.687,20.53,27,54,10.69,US,1715537702
481,kharan,28.5833,65.4167,29.11,10,1,2.89,PK,1715537702
482,kirakira,-10.4544,161.9205,25.57,83,83,3.14,SB,1715537703
483,kendari,-3.945,122.4989,23.42,96,42,1.32,ID,1715537703
484,clarksdale,34.2001,-90.5709,27.99,100,71,3.6,US,1715537703
485,pontes e lacerda,-15.2261,-59.3353,36.13,28,1,3.62,BR,1715537601
486,kayangel,8.0823,134.7173,28.29,79,29,6.88,PW,1715537703
487,tazacorte,28.629,-17.9293,22.3,74,20,6.69,ES,1715537705
488,malvan,16.0667,73.4667,29.12,79,41,5.18,IN,1715537705
489,taltal,-25.4,-70.4833,18.39,68,20,3.14,CL,1715537705
490,la passe,45.5549,-0.8967,15.79,86,60,4.89,FR,1715537705
491,port hedland,-20.3167,118.5667,21.03,68,0,3.6,AU,1715537421
492,vernon,50.2581,-119.2691,27.01,27,40,0.9,CA,1715537426
493,zemetchino,53.4973,42.6163,4.61,64,99,3.01,RU,1715537706
494,hadibu,12.65,54.0333,29.58,70,82,1.05,YE,1715537706
495,skadovs'k,46.1161,32.9112,12.31,46,53,5.4,UA,1715537706
496,dongsheng,39.8161,109.9776,14.75,19,42,3.6,CN,1715537706
497,dolgorukovo,52.3195,38.3453,4.83,71,100,2.48,RU,1715537707
498,vila velha,-20.3297,-40.2925,31.65,99,20,5.14,BR,1715537246
499,nyborg,55.3127,10.7896,10.27,68,6,6.21,DK,1715537707
500,itoman,26.1247,127.6694,26.21,94,75,4.12,JP,1715537529
501,buckeburg,52.2607,9.0494,21.9,46,20,5.14,DE,1715537708
502,abdurahmoni jomi,37.9464,68.8088,16.16,77,0,2.0,TJ,1715537708
503,nabire,-3.3667,135.4833,24.88,96,100,1.16,ID,1715537708
504,filadelfia,39.9523,-75.1638,12.71,91,100,3.09,US,1715537649
505,kembe,4.6228,21.8865,27.69,50,88,0.56,CF,1715537709
506,holualoa,19.6228,-155.9522,23.08,83,75,7.2,US,1715537709
507,kuta,-8.7233,115.1723,26.97,94,20,3.13,ID,1715537710
508,afgooye,2.1381,45.1212,27.57,81,83,6.54,SO,1715537710
509,ayorou,14.7308,0.9174,40.38,22,97,4.87,NE,1715537710
510,pugachev,52.0133,48.8025,4.34,89,100,7.73,RU,1715537710
511,tumayr,25.7039,45.868,32.63,25,58,6.05,SA,1715537710
512,tolanaro,-25.0319,46.9987,21.95,91,0,4.03,MG,1715537711
513,contramaestre,20.2978,-76.2414,35.52,39,84,2.09,CU,1715537711
514,kenora,49.8167,-94.4337,14.54,44,75,7.72,CA,1715537537
515,kavaratti,10.5669,72.642,30.27,68,18,4.03,IN,1715537711
516,socuellamos,39.2858,-2.7921,25.76,28,78,3.03,ES,1715537711
517,jalalaqsi,3.3766,45.5996,28.35,67,96,6.39,SO,1715537712
518,lerwick,60.1545,-1.1494,11.0,87,100,8.18,GB,1715537712
519,mersa matruh,31.3525,27.2453,18.88,69,0,6.95,EG,1715537712
520,champerico,14.3,-91.9167,36.3,62,90,4.92,GT,1715537712
521,hobyo,5.3505,48.5268,28.9,80,38,6.93,SO,1715537712
522,east london,-33.0153,27.9116,15.52,94,0,2.57,ZA,1715537713
523,nova sintra,14.8667,-24.7167,23.7,82,52,10.81,CV,1715537713
524,island harbour,50.724,-1.2758,20.17,82,100,1.34,GB,1715537713
525,san sebastian de la gomera,28.0916,-17.1133,24.1,60,0,2.57,ES,1715537713
526,makoua,0.0069,15.6333,28.31,73,99,0.78,CG,1715537714
527,akureyri,65.6835,-18.0878,5.96,87,75,5.14,IS,1715537714
528,valdivia,-39.8142,-73.2459,11.1,62,26,1.09,CL,1715537500
529,urucara,-2.5364,-57.76,24.31,94,99,1.71,BR,1715537714
530,twin falls,42.3505,-114.6445,23.19,31,0,7.72,US,1715537531
531,sibay,52.7181,58.6658,10.68,98,100,1.34,RU,1715537715
532,general mosconi,-23.1851,-62.303,14.07,88,100,3.91,AR,1715537715
533,chabahar,25.2919,60.643,28.86,70,1,3.06,IR,1715537715
534,manaure,11.7751,-72.4445,33.97,52,65,5.7,CO,1715537715
535,port augusta,-32.5,137.7667,12.41,81,28,2.21,AU,1715537715
536,bechar,31.6167,-2.2167,34.18,10,40,5.14,DZ,1715537716
537,kruisfontein,-34.0033,24.7314,11.6,89,7,1.37,ZA,1715537716
538,morehead city,34.7229,-76.726,26.11,37,75,5.66,US,1715537433
539,donggang,28.9365,114.2259,16.41,78,100,1.33,CN,1715537716
540,orkney,-26.9802,26.6727,19.09,24,6,2.17,ZA,1715537716
541,jizzax,40.1158,67.8422,19.06,61,11,2.41,UZ,1715537716
542,mananjary,-21.2167,48.3333,22.66,79,6,1.71,MG,1715537717
543,jose maria morelos,23.3952,-103.8984,29.26,14,57,9.43,MX,1715537717
544,elva,58.2225,26.4211,12.08,40,72,1.54,EE,1715537717
545,petauke,-14.2426,31.3253,21.77,43,7,4.49,ZM,1715537717
546,teuva,62.4819,21.7416,10.88,83,89,1.96,FI,1715537717
547,damara,4.9608,18.7035,22.91,92,99,2.65,CF,1715537718
548,murun-kuren,49.6342,100.1625,15.21,57,83,1.71,MN,1715537718
549,megion,61.0296,76.1136,12.01,65,99,8.91,RU,1715537718
550,sept-iles,50.2001,-66.3821,15.29,31,20,5.66,CA,1715537527
551,illizi,26.4833,8.4667,32.89,13,61,9.24,DZ,1715537719
552,bismarck,46.8083,-100.7837,20.91,28,0,6.69,US,1715537627
553,masaya sur,16.497,121.7456,26.13,77,90,0.39,PH,1715537720
554,palmer,42.1584,-72.3287,15.65,51,75,2.24,US,1715537720
555,mohr,54.3528,9.7167,16.97,57,20,7.72,DE,1715537720
556,inverell,-29.7833,151.1167,9.53,98,0,1.34,AU,1715537720
557,roma,43.2128,-75.4557,14.34,67,100,3.09,US,1715537720
558,fuyang,32.9,115.8167,16.65,49,15,2.75,CN,1715537721
559,nogliki,51.8333,143.1667,0.75,98,100,8.05,RU,1715537721
560,haapajarvi,63.75,25.3333,8.03,90,100,1.4,FI,1715537721
561,novoarkhanhel's'k,48.658,30.8182,8.63,65,98,4.36,UA,1715537721
562,santiago de cuba,20.0247,-75.8219,30.06,79,40,4.63,CU,1715537721
563,kudahuvadhoo,2.6708,72.8944,29.83,77,95,5.06,MV,1715537586
564,calca,-13.3333,-71.95,23.64,51,40,1.94,PE,1715537722
565,letlhakeng,-24.0944,25.0298,20.58,28,2,3.79,BW,1715537722
566,neryungri,56.6709,124.6491,-3.78,91,100,1.13,RU,1715537722
567,brisas de zicatela,15.8369,-97.0419,31.29,42,40,3.09,MX,1715537722
568,saldanha,-33.0117,17.9442,15.63,78,0,5.73,ZA,1715537723
569,moroto,2.5345,34.6666,22.31,58,93,2.95,UG,1715537723
570,ambon,-3.6954,128.1814,26.08,94,40,1.54,ID,1715537724
571,sibolga,1.7427,98.7792,25.69,92,99,0.88,ID,1715537724
572,richfield,44.8833,-93.283,30.09,30,20,8.23,US,1715537675
573,grants,35.1473,-107.8514,18.13,22,40,10.29,US,1715537725
574,san luis de la loma,17.2706,-100.8939,31.26,44,39,3.34,MX,1715537725
575,wewak,-3.5534,143.6268,26.1,90,99,2.46,PG,1715537725
576,campbellton,48.0075,-66.6727,17.25,32,10,1.65,CA,1715537726
577,gornyy,55.1153,83.9059,9.3,54,40,2.72,RU,1715537726
578,novosokol'niki,56.3463,30.1578,3.84,75,76,2.36,RU,1715537726
579,keetmanshoop,-26.5833,18.1333,25.51,19,4,1.03,NA,1715537726
580,cidreira,-30.1811,-50.2056,21.12,97,100,2.76,BR,1715537726
581,praia da vitoria,38.7333,-27.0667,23.14,64,20,4.16,PT,1715537727
582,pajok,3.8651,32.4821,25.27,55,78,2.07,SS,1715537727
583,antsiranana,-12.2787,49.2917,26.41,73,95,6.31,MG,1715537727
584,manokwari,-0.8667,134.0833,26.46,80,98,2.87,ID,1715537727
585,clewiston,26.7542,-80.9337,34.44,41,37,3.24,US,1715537641
586,sabang,5.8933,95.3214,26.43,91,97,4.36,ID,1715537728
587,bontang,0.1333,117.5,27.27,85,2,3.48,ID,1715537728
588,madang,-5.2246,145.7966,24.64,94,100,3.06,PG,1715537728
589,barbacoas,1.6715,-78.1398,32.11,64,77,1.89,CO,1715537728
590,tromso,69.6496,18.957,7.01,93,100,5.66,NO,1715537728
591,paso de los libres,-29.7131,-57.0899,14.78,96,100,4.63,AR,1715537729
592,xiaoweizhai,26.1903,107.5125,14.37,76,82,1.74,CN,1715537729
593,bugasan,7.4408,124.2592,23.65,95,100,1.39,PH,1715537730
594,konokovo,44.8616,41.3266,10.84,94,100,1.89,RU,1715537730
595,newport,51.5877,-2.9984,20.62,82,33,4.37,GB,1715537533
596,llandrindod wells,52.2416,-3.3787,17.99,86,49,4.1,GB,1715537730
